[
  {
    "name": "멘지 양산센텀힐병원점",
    "tags": [
      "라멘",
      "일본식라면"
    ],
    "phone": null,
    "address": "경상남도 양산시 평산로 11 102, 103호",
    "latitude": 35.3813023,
    "placeUrl": null,
    "longitude": 129.1537471,
    "thumbnailUrl": "/assets/default-ramen.svg"
  },
  {
    "name": "무라",
    "tags": [
      "라멘",
      "일본식라면"
    ],
    "phone": null,
    "address": "경상남도 양산시 양산역9길 5 송림타워 102호",
    "latitude": 35.3375542,
    "placeUrl": null,
    "longitude": 129.0286293,
    "thumbnailUrl": "/assets/default-ramen.svg"
  },
  {
    "name": "소금쟁이라멘",
    "tags": [
      "라멘",
      "일본식라면"
    ],
    "phone": null,
    "address": "경상남도 양산시 하북면 충렬로 1516",
    "latitude": 35.4688694,
    "placeUrl": "https://www.instagram.com/water_strider_ramen?utm_medium=copy_link",
    "longitude": 129.078302,
    "thumbnailUrl": "/assets/default-ramen.svg"
  },
  {
    "name": "유쿠리라멘",
    "tags": [
      "라멘",
      "일본식라면"
    ],
    "phone": null,
    "address": "경상남도 양산시 물금읍 목화로 38 유쿠리라멘 물금심야라멘 본점",
    "latitude": 35.3305452,
    "placeUrl": "https://www.instagram.com/yukuri_ramen/",
    "longitude": 129.0005693,
    "thumbnailUrl": "/assets/default-ramen.svg"
  },
  {
    "name": "사사야키",
    "tags": [
      "라멘",
      "일본식라면"
    ],
    "phone": null,
    "address": "경상남도 양산시 물금읍 화합4길 11-11 1층",
    "latitude": 35.3289531,
    "placeUrl": null,
    "longitude": 129.010236,
    "thumbnailUrl": "/assets/default-ramen.svg"
  },
  {
    "name": "라멘메이트",
    "tags": [
      "라멘",
      "일본식라면"
    ],
    "phone": null,
    "address": "경기도 파주시 한마음2길 28 102호 재우빌딩",
    "latitude": 37.7566429,
    "placeUrl": null,
    "longitude": 126.7727971,
    "thumbnailUrl": "/assets/default-ramen.svg"
  },
  {
    "name": "우마이 라멘",
    "tags": [
      "라멘",
      "일본식라면"
    ],
    "phone": null,
    "address": "경기도 파주시 경의로 1108 월드타워7차 2층 203호",
    "latitude": 37.7161646,
    "placeUrl": "https://www.instagram.com/U_mai_ramen",
    "longitude": 126.7602273,
    "thumbnailUrl": "/assets/default-ramen.svg"
  },
  {
    "name": "멘야세븐 운정점",
    "tags": [
      "라멘",
      "일식당"
    ],
    "phone": null,
    "address": "경기도 파주시 경의로1240번길 37-1 명품프라자 3차 멘야세븐 운정점",
    "latitude": 37.7286394,
    "placeUrl": "https://www.instagram.com/menya7_unjung",
    "longitude": 126.7636975,
    "thumbnailUrl": "/assets/default-ramen.svg"
  },
  {
    "name": "미료우라멘",
    "tags": [
      "라멘",
      "일본식라면"
    ],
    "phone": null,
    "address": "경기도 파주시 경의로 1050 1층 110호",
    "latitude": 37.7111357,
    "placeUrl": "https://www.instagram.com/miryouramen",
    "longitude": 126.7596309,
    "thumbnailUrl": "/assets/default-ramen.svg"
  },
  {
    "name": "잇쇼니키친 파주본점",
    "tags": [
      "라멘",
      "일본식라면"
    ],
    "phone": null,
    "address": "경기도 파주시 번영로 56 1층",
    "latitude": 37.7578711,
    "placeUrl": "https://blog.naver.com/1show2kitchen_ramen",
    "longitude": 126.7669,
    "thumbnailUrl": "/assets/default-ramen.svg"
  },
  {
    "name": "따따라멘",
    "tags": [
      "라멘",
      "일본식라면"
    ],
    "phone": null,
    "address": "경기도 평택시 고덕중앙2로 77-6 105호 따따라멘 고덕점",
    "latitude": 37.0459081,
    "placeUrl": null,
    "longitude": 127.0451139,
    "thumbnailUrl": "/assets/default-ramen.svg"
  },
  {
    "name": "멘야고 본점",
    "tags": [
      "라멘",
      "일본식라면"
    ],
    "phone": null,
    "address": "경기도 평택시 팽성읍 송화택지로 143-12 1층",
    "latitude": 36.9638704,
    "placeUrl": null,
    "longitude": 127.0643542,
    "thumbnailUrl": "/assets/default-ramen.svg"
  },
  {
    "name": "멘야고 고덕신도시1호점",
    "tags": [
      "라멘",
      "일본식라면"
    ],
    "phone": null,
    "address": "경기도 평택시 고덕여염10길 41 1층",
    "latitude": 37.04153,
    "placeUrl": null,
    "longitude": 127.0487889,
    "thumbnailUrl": "/assets/default-ramen.svg"
  },
  {
    "name": "멘이치라멘",
    "tags": [
      "라멘",
      "일본식라면"
    ],
    "phone": null,
    "address": "경기도 평택시 평택2로 35 1층",
    "latitude": 36.9940421,
    "placeUrl": "https://www.instagram.com/menichi._ramen?igsh=OTl5cjBjbHM0MDly&utm_source=qr",
    "longitude": 127.0898248,
    "thumbnailUrl": "/assets/default-ramen.svg"
  },
  {
    "name": "쿠로우사기 본점",
    "tags": [
      "라멘",
      "일본식라면"
    ],
    "phone": null,
    "address": "경기도 화성시 동탄구 삼성1로5길 5 R",
    "latitude": 37.2247901,
    "placeUrl": "https://www.instagram.com/kurousagi_ramen?igsh=MTI5a2Rqa3hnaTJxOA==",
    "longitude": 127.0732419,
    "thumbnailUrl": "/assets/default-ramen.svg"
  },
  {
    "name": "쿠로우사기 병점점",
    "tags": [
      "라멘",
      "일본식라면"
    ],
    "phone": null,
    "address": "경기도 화성시 병점구 효행로 1051 메인프라자 1층",
    "latitude": 37.214627,
    "placeUrl": "https://www.instagram.com/kurousagi_byeongjeom?igsh=czAxYzZtYmZ3eWU5&utm_source=qr",
    "longitude": 127.0419608,
    "thumbnailUrl": "/assets/default-ramen.svg"
  },
  {
    "name": "센쿄라멘",
    "tags": [
      "라멘",
      "일본식라면"
    ],
    "phone": null,
    "address": "경기도 화성시 병점구 효행로 1075-7 118, 119호",
    "latitude": 37.2156174,
    "placeUrl": null,
    "longitude": 127.0437673,
    "thumbnailUrl": "/assets/default-ramen.svg"
  },
  {
    "name": "키와마루아지",
    "tags": [
      "라멘",
      "일본식라면"
    ],
    "phone": null,
    "address": "경기도 화성시 동탄구 동탄중심상가2길 11 1층101호",
    "latitude": 37.2057631,
    "placeUrl": null,
    "longitude": 127.0732617,
    "thumbnailUrl": "/assets/default-ramen.svg"
  },
  {
    "name": "우마미",
    "tags": [
      "라멘",
      "일본식라면"
    ],
    "phone": null,
    "address": "강원특별자치도 속초시 영랑로7길 13 상가 1층",
    "latitude": 38.214173,
    "placeUrl": "https://www.instagram.com/uma.miiiii",
    "longitude": 128.5955188,
    "thumbnailUrl": "/assets/default-ramen.svg"
  },
  {
    "name": "이찌바라멘",
    "tags": [
      "라멘",
      "일본식라면"
    ],
    "phone": null,
    "address": "강원특별자치도 속초시 중앙로 348 이찌바라멘",
    "latitude": 38.219477,
    "placeUrl": null,
    "longitude": 128.5916841,
    "thumbnailUrl": "/assets/default-ramen.svg"
  },
  {
    "name": "주오일심야라멘",
    "tags": [
      "라멘",
      "일본식라면"
    ],
    "phone": null,
    "address": "강원특별자치도 속초시 영랑로2길 7",
    "latitude": 38.2140748,
    "placeUrl": "https://www.instagram.com/juoil.rm",
    "longitude": 128.5912403,
    "thumbnailUrl": "/assets/default-ramen.svg"
  },
  {
    "name": "멘야이로 용상점",
    "tags": [
      "라멘",
      "일본식라면"
    ],
    "phone": null,
    "address": "경상북도 안동시 전거리2길 95 1층",
    "latitude": 36.5580426,
    "placeUrl": "https://www.instagram.com/menyairo_yongsang",
    "longitude": 128.7483011,
    "thumbnailUrl": "/assets/default-ramen.svg"
  },
  {
    "name": "에또라멘",
    "tags": [
      "라멘",
      "일본식라면"
    ],
    "phone": null,
    "address": "경상북도 안동시 태사1길 8 1층",
    "latitude": 36.5664384,
    "placeUrl": "https://www.instagram.com/ettorameng?igsh=MWQzeTJ2Y3o0NnI2cA==",
    "longitude": 128.7321789,
    "thumbnailUrl": "/assets/default-ramen.svg"
  },
  {
    "name": "큐슈울트라아멘 구미확장단지점",
    "tags": [
      "라멘",
      "일본식라면"
    ],
    "phone": null,
    "address": "경상북도 구미시 산동읍 신당1로2길 5 1동 1층 103호",
    "latitude": 36.1545336,
    "placeUrl": "https://큐슈울트라아멘.com/",
    "longitude": 128.4317504,
    "thumbnailUrl": "/assets/default-ramen.svg"
  },
  {
    "name": "멘야모리 구미 인동 본점",
    "tags": [
      "라멘",
      "일본식라면"
    ],
    "phone": null,
    "address": "경상북도 구미시 인동34길 3 1층",
    "latitude": 36.0942171,
    "placeUrl": "https://www.instagram.com/menya_mori",
    "longitude": 128.4321846,
    "thumbnailUrl": "/assets/default-ramen.svg"
  },
  {
    "name": "리코리",
    "tags": [
      "라멘",
      "일본식라면"
    ],
    "phone": null,
    "address": "경상북도 구미시 금오산로22길 26 1층 102호",
    "latitude": 36.1263253,
    "placeUrl": "https://www.instagram.com/re.co.re_ramen",
    "longitude": 128.3300496,
    "thumbnailUrl": "/assets/default-ramen.svg"
  },
  {
    "name": "후우미라멘",
    "tags": [
      "라멘",
      "일본식라면"
    ],
    "phone": null,
    "address": "경상북도 구미시 신시로14길 58",
    "latitude": 36.1169508,
    "placeUrl": null,
    "longitude": 128.3451159,
    "thumbnailUrl": "/assets/default-ramen.svg"
  },
  {
    "name": "쿠시멘",
    "tags": [
      "라멘",
      "일본식라면"
    ],
    "phone": null,
    "address": "전북특별자치도 익산시 선화로21길 22-3 쿠시멘",
    "latitude": 35.9536632,
    "placeUrl": null,
    "longitude": 126.9457369,
    "thumbnailUrl": "/assets/default-ramen.svg"
  },
  {
    "name": "일본라멘전문점 치쿠린 원광대점",
    "tags": [
      "라멘",
      "일본식라면"
    ],
    "phone": null,
    "address": "전북특별자치도 익산시 익산대로68길 35 2층 치쿠린",
    "latitude": 35.9622365,
    "placeUrl": null,
    "longitude": 126.9573814,
    "thumbnailUrl": "/assets/default-ramen.svg"
  },
  {
    "name": "스바라시라멘 익산점",
    "tags": [
      "라멘",
      "일본식라면"
    ],
    "phone": null,
    "address": "전북특별자치도 익산시 고봉로 290-21",
    "latitude": 35.9579672,
    "placeUrl": null,
    "longitude": 126.9731599,
    "thumbnailUrl": "/assets/default-ramen.svg"
  },
  {
    "name": "멘지 군산디오션점",
    "tags": [
      "라멘",
      "일본식라면"
    ],
    "phone": null,
    "address": "전북특별자치도 군산시 궁포1로 24-3 세종빌딩 2층 202-4호",
    "latitude": 35.9768524,
    "placeUrl": "https://www.instagram.com/menji_gunsan?igsh=MWI4MjdjMXB2aGpmbQ==",
    "longitude": 126.7405907,
    "thumbnailUrl": "/assets/default-ramen.svg"
  },
  {
    "name": "노조미라멘본점",
    "tags": [
      "라멘",
      "일본식라면"
    ],
    "phone": null,
    "address": "전북특별자치도 군산시 효자길 31-1 노조미라멘본점",
    "latitude": 35.9795672,
    "placeUrl": "https://www.instagram.com/samhakdong_tiger_/",
    "longitude": 126.7132906,
    "thumbnailUrl": "/assets/default-ramen.svg"
  },
  {
    "name": "노조미라멘 월명점",
    "tags": [
      "라멘",
      "일본식라면"
    ],
    "phone": null,
    "address": "전북특별자치도 군산시 구영7길 68 노조미라멘 월명점",
    "latitude": 35.9867025,
    "placeUrl": null,
    "longitude": 126.7105729,
    "thumbnailUrl": "/assets/default-ramen.svg"
  },
  {
    "name": "타무라멘",
    "tags": [
      "라멘",
      "일본식라면"
    ],
    "phone": null,
    "address": "제주특별자치도 서귀포시 안덕면 사계남로 155-1 타무라멘",
    "latitude": 33.2286907,
    "placeUrl": null,
    "longitude": 126.3067805,
    "thumbnailUrl": "/assets/default-ramen.svg"
  },
  {
    "name": "조조모모 본점",
    "tags": [
      "라멘",
      "일본식라면"
    ],
    "phone": null,
    "address": "제주특별자치도 서귀포시 안덕면 난드르로 17 1층",
    "latitude": 33.2347025,
    "placeUrl": "https://www.instagram.com/jojomomo_jeju_park?igsh=emE0c2JtYWhxODhz",
    "longitude": 126.3661734,
    "thumbnailUrl": "/assets/default-ramen.svg"
  },
  {
    "name": "이치카",
    "tags": [
      "라멘",
      "일본식라면"
    ],
    "phone": null,
    "address": "제주특별자치도 서귀포시 남원읍 신례로 308",
    "latitude": 33.2901282,
    "placeUrl": "https://www.instagram.com/ramen_ichika",
    "longitude": 126.6277176,
    "thumbnailUrl": "/assets/default-ramen.svg"
  },
  {
    "name": "라멘집아저씨 목포점",
    "tags": [
      "라멘",
      "일본식라면"
    ],
    "phone": null,
    "address": "전남광주통합특별시 목포시 노적봉길 18-1 이층 라멘집아저씨",
    "latitude": 34.7900511,
    "placeUrl": null,
    "longitude": 126.3835395,
    "thumbnailUrl": "/assets/default-ramen.svg"
  },
  {
    "name": "카와루라멘 목포본점",
    "tags": [
      "라멘",
      "일식당"
    ],
    "phone": null,
    "address": "전남광주통합특별시 목포시 원산로69번길 17",
    "latitude": 34.8067147,
    "placeUrl": "https://www.instagram.com/kawaru_official",
    "longitude": 126.3749201,
    "thumbnailUrl": "/assets/default-ramen.svg"
  },
  {
    "name": "카츠야끼",
    "tags": [
      "라멘",
      "일본식라면"
    ],
    "phone": null,
    "address": "전남광주통합특별시 목포시 연산백련로 4-4 1층카츠야끼",
    "latitude": 34.817753,
    "placeUrl": null,
    "longitude": 126.3935524,
    "thumbnailUrl": "/assets/default-ramen.svg"
  },
  {
    "name": "렌라멘",
    "tags": [
      "라멘",
      "일본식라면"
    ],
    "phone": null,
    "address": "전남광주통합특별시 여수시 웅천로 321-1 1층 상가",
    "latitude": 34.7483385,
    "placeUrl": null,
    "longitude": 127.6831174,
    "thumbnailUrl": "/assets/default-ramen.svg"
  },
  {
    "name": "갓라멘",
    "tags": [
      "라멘",
      "일본식라면"
    ],
    "phone": null,
    "address": "전남광주통합특별시 여수시 동문로 120 1층",
    "latitude": 34.7468767,
    "placeUrl": null,
    "longitude": 127.7439731,
    "thumbnailUrl": "/assets/default-ramen.svg"
  },
  {
    "name": "멘야로 순천호수공원 본점",
    "tags": [
      "라멘",
      "일본식라면"
    ],
    "phone": null,
    "address": "전남광주통합특별시 순천시 왕지2길 9-11 1층 103호",
    "latitude": 34.9690213,
    "placeUrl": "https://www.instagram.com/menyaro_suncheon/",
    "longitude": 127.523642,
    "thumbnailUrl": "/assets/default-ramen.svg"
  },
  {
    "name": "라멘마루켄",
    "tags": [
      "라멘",
      "일본식라면"
    ],
    "phone": null,
    "address": "전남광주통합특별시 순천시 왕지4길 14-19",
    "latitude": 34.9682485,
    "placeUrl": null,
    "longitude": 127.5245454,
    "thumbnailUrl": "/assets/default-ramen.svg"
  },
  {
    "name": "지라멘 순천신대점",
    "tags": [
      "라멘",
      "일본식라면"
    ],
    "phone": null,
    "address": "전남광주통합특별시 순천시 해룡면 향매1길 17 108호",
    "latitude": 34.9341573,
    "placeUrl": "https://talk.naver.com/profile/w85g4km",
    "longitude": 127.5541462,
    "thumbnailUrl": "/assets/default-ramen.svg"
  },
  {
    "name": "마모루",
    "tags": [
      "라멘",
      "일본식라면"
    ],
    "phone": null,
    "address": "제주특별자치도 제주시 광양13길 10-1 드림주택 1층",
    "latitude": 33.4988669,
    "placeUrl": "http://instagram.com/mamoru_jejuramen",
    "longitude": 126.5314322,
    "thumbnailUrl": "/assets/default-ramen.svg"
  },
  {
    "name": "마초면탁",
    "tags": [
      "라멘",
      "일본식라면"
    ],
    "phone": null,
    "address": "제주특별자치도 제주시 노형로 89 2층",
    "latitude": 33.4643672,
    "placeUrl": "http://마초면탁.shop/",
    "longitude": 126.4553775,
    "thumbnailUrl": "/assets/default-ramen.svg"
  },
  {
    "name": "멘야준 홍대점",
    "tags": [
      "라멘",
      "일식당"
    ],
    "phone": null,
    "address": "서울특별시 마포구 동교로 128",
    "latitude": 37.5549263,
    "placeUrl": "http://instagram.com/menyajoon/",
    "longitude": 126.9164357,
    "thumbnailUrl": "/assets/default-ramen.svg"
  },
  {
    "name": "소바하우스멘야준 연남점",
    "tags": [
      "라멘",
      "일식당"
    ],
    "phone": null,
    "address": "서울특별시 마포구 월드컵북로6길 84 1층",
    "latitude": 37.559984,
    "placeUrl": "https://www.instagram.com/sobahousemenyajoon",
    "longitude": 126.9226164,
    "thumbnailUrl": "/assets/default-ramen.svg"
  },
  {
    "name": "왓쇼이켄",
    "tags": [
      "라멘",
      "일본식라면"
    ],
    "phone": null,
    "address": "서울특별시 강남구 테헤란로4길 46 쌍용플래티넘밸류 B1 120호",
    "latitude": 37.4951166,
    "placeUrl": null,
    "longitude": 127.0303103,
    "thumbnailUrl": "/assets/default-ramen.svg"
  },
  {
    "name": "멘츠루 성수점",
    "tags": [
      "라멘",
      "일본식라면"
    ],
    "phone": null,
    "address": "서울특별시 성동구 성수이로20길 10 103호",
    "latitude": 37.5432995,
    "placeUrl": "https://www.instagram.com/menchuru__seongsu?igshid=YTQwZjQ0NmI0OA==",
    "longitude": 127.0575909,
    "thumbnailUrl": "/assets/default-ramen.svg"
  },
  {
    "name": "멘노아지 성수점",
    "tags": [
      "라멘",
      "일본식라면"
    ],
    "phone": null,
    "address": "서울특별시 성동구 연무장5가길 7 106호",
    "latitude": 37.5440703,
    "placeUrl": "https://app.catchtable.co.kr/ct/shop/mennoage_seongsu",
    "longitude": 127.0536274,
    "thumbnailUrl": "/assets/default-ramen.svg"
  },
  {
    "name": "키키노히호",
    "tags": [
      "라멘",
      "일본식라면"
    ],
    "phone": null,
    "address": "서울특별시 성동구 연무장7가길 6-1 1층",
    "latitude": 37.5429889,
    "placeUrl": "https://www.instagram.com/kikinohihou_official",
    "longitude": 127.0551111,
    "thumbnailUrl": "/assets/default-ramen.svg"
  },
  {
    "name": "록멘",
    "tags": [
      "라멘",
      "일본식라면"
    ],
    "phone": null,
    "address": "서울특별시 성동구 성수일로3길 2 1층 록멘",
    "latitude": 37.5421313,
    "placeUrl": "http://instagram.com/rokmen_ramen",
    "longitude": 127.0485852,
    "thumbnailUrl": "/assets/default-ramen.svg"
  },
  {
    "name": "멘야포모 서울숲점",
    "tags": [
      "라멘",
      "일본식라면"
    ],
    "phone": null,
    "address": "서울특별시 성동구 서울숲4길 28 2층",
    "latitude": 37.5469232,
    "placeUrl": "https://www.instagram.com/menyapomo",
    "longitude": 127.0438515,
    "thumbnailUrl": "/assets/default-ramen.svg"
  },
  {
    "name": "멘츠루 어린이대공원점",
    "tags": [
      "라멘",
      "일본식라면"
    ],
    "phone": null,
    "address": "서울특별시 광진구 광나루로 394 1층",
    "latitude": 37.547275,
    "placeUrl": "https://www.instagram.com/menchuru_grandpark",
    "longitude": 127.0734369,
    "thumbnailUrl": "/assets/default-ramen.svg"
  },
  {
    "name": "코노하 건대점",
    "tags": [
      "라멘",
      "일본식라면"
    ],
    "phone": null,
    "address": "서울특별시 광진구 능동로13길 19 2층",
    "latitude": 37.5428929,
    "placeUrl": "https://www.instagram.com/soupkonoha/",
    "longitude": 127.0708469,
    "thumbnailUrl": "/assets/default-ramen.svg"
  },
  {
    "name": "멘지 건대점",
    "tags": [
      "라멘",
      "일본식라면"
    ],
    "phone": null,
    "address": "서울특별시 광진구 능동로13길 15 2층",
    "latitude": 37.5427999,
    "placeUrl": "https://www.instagram.com/menji_konkuk",
    "longitude": 127.0709291,
    "thumbnailUrl": "/assets/default-ramen.svg"
  },
  {
    "name": "츠케루 건대입구",
    "tags": [
      "라멘",
      "일본식라면"
    ],
    "phone": null,
    "address": "서울특별시 광진구 아차산로29길 35 1층",
    "latitude": 37.5424601,
    "placeUrl": "https://toss.place/_mp/hugr2B6dc",
    "longitude": 127.0687794,
    "thumbnailUrl": "/assets/default-ramen.svg"
  },
  {
    "name": "우츄진 롯데백화점 잠실점",
    "tags": [
      "라멘",
      "일본식라면"
    ],
    "phone": null,
    "address": "서울특별시 송파구 올림픽로 240 롯데백화점 잠실점 지하1층 푸드코트 우츄진",
    "latitude": 37.5121934,
    "placeUrl": "https://youtube.com/channel/UCkH4_CUIFlv5z4MO9reAXEA?si=P6llqtlLu2UzmwxN",
    "longitude": 127.0991021,
    "thumbnailUrl": "/assets/default-ramen.svg"
  },
  {
    "name": "멘츠루 잠실점",
    "tags": [
      "라멘",
      "일본식라면"
    ],
    "phone": null,
    "address": "서울특별시 송파구 올림픽로34길 3-36 1층 104, 105호",
    "latitude": 37.5167383,
    "placeUrl": "https://www.instagram.com/menchuru__jamsil?igsh=MWdod3R3Y3pjNWVv",
    "longitude": 127.1124763,
    "thumbnailUrl": "/assets/default-ramen.svg"
  },
  {
    "name": "멘츠루 대학로점",
    "tags": [
      "라멘",
      "일본식라면"
    ],
    "phone": null,
    "address": "서울특별시 종로구 창경궁로26길 39 1층 멘츠루",
    "latitude": 37.5820066,
    "placeUrl": "https://www.instagram.com/menchuru_hyehwa?igsh=Z3BzbWd0d2NjMXZy",
    "longitude": 126.9998393,
    "thumbnailUrl": "/assets/default-ramen.svg"
  },
  {
    "name": "멘야산다이메",
    "tags": [
      "라멘",
      "일본식라면"
    ],
    "phone": null,
    "address": "서울특별시 종로구 창경궁로26길 38-2",
    "latitude": 37.5818134,
    "placeUrl": "http://menyahyehwa.com",
    "longitude": 126.9997459,
    "thumbnailUrl": "/assets/default-ramen.svg"
  },
  {
    "name": "칸다소바",
    "tags": [
      "라멘",
      "일본식라면"
    ],
    "phone": null,
    "address": "서울특별시 종로구 대학로 131-1",
    "latitude": 37.582901,
    "placeUrl": "https://litt.ly/kandasoba",
    "longitude": 127.001384,
    "thumbnailUrl": "/assets/default-ramen.svg"
  },
  {
    "name": "멘텐",
    "tags": [
      "라멘",
      "일본식라면"
    ],
    "phone": null,
    "address": "서울특별시 중구 삼일대로 305 동북빌딩1층",
    "latitude": 37.5619803,
    "placeUrl": null,
    "longitude": 126.9886351,
    "thumbnailUrl": "/assets/default-ramen.svg"
  },
  {
    "name": "멘야산다이메 이태원점",
    "tags": [
      "라멘",
      "일본식라면"
    ],
    "phone": null,
    "address": "서울특별시 용산구 보광로60길 10 1층",
    "latitude": 37.5339184,
    "placeUrl": null,
    "longitude": 126.9947083,
    "thumbnailUrl": "/assets/default-ramen.svg"
  },
  {
    "name": "멘츠루 여의도점",
    "tags": [
      "라멘",
      "일본식라면"
    ],
    "phone": null,
    "address": "서울특별시 영등포구 의사당대로 127 105호",
    "latitude": 37.5202406,
    "placeUrl": null,
    "longitude": 126.9264067,
    "thumbnailUrl": "/assets/default-ramen.svg"
  },
  {
    "name": "이와타",
    "tags": [
      "라멘",
      "일본식라면"
    ],
    "phone": null,
    "address": "서울특별시 영등포구 국제금융로6길 33 맨하탄빌딩 지하1층 42호",
    "latitude": 37.5209205,
    "placeUrl": "https://app.catchtable.co.kr/ct/shop/iwata",
    "longitude": 126.9265569,
    "thumbnailUrl": "/assets/default-ramen.svg"
  },
  {
    "name": "삼미당 여의도점",
    "tags": [
      "라멘",
      "일본식라면"
    ],
    "phone": null,
    "address": "서울특별시 영등포구 의사당대로 97 교보증권빌딩 지하1층 아케이드상가 4호",
    "latitude": 37.5225178,
    "placeUrl": null,
    "longitude": 126.9245977,
    "thumbnailUrl": "/assets/default-ramen.svg"
  },
  {
    "name": "계도 IFC몰",
    "tags": [
      "라멘",
      "일본식라면"
    ],
    "phone": null,
    "address": "서울특별시 영등포구 국제금융로 10 L3층",
    "latitude": 37.5255723,
    "placeUrl": null,
    "longitude": 126.9266143,
    "thumbnailUrl": "/assets/default-ramen.svg"
  },
  {
    "name": "멘야리 노원본점",
    "tags": [
      "라멘",
      "일본식라면"
    ],
    "phone": null,
    "address": "서울특별시 노원구 상계로1길 14-11 에이동 1층 112호",
    "latitude": 37.6569361,
    "placeUrl": "https://www.instagram.com/menyalee_nowon",
    "longitude": 127.0619303,
    "thumbnailUrl": "/assets/default-ramen.svg"
  },
  {
    "name": "토리코코로 공릉직영점",
    "tags": [
      "라멘",
      "일본식라면"
    ],
    "phone": null,
    "address": "서울특별시 노원구 공릉로35길 10 지층 토리코코로 공릉직영점",
    "latitude": 37.6228995,
    "placeUrl": "https://blog.naver.com/torikokoro_gongneung",
    "longitude": 127.0787329,
    "thumbnailUrl": "/assets/default-ramen.svg"
  },
  {
    "name": "쇼지키",
    "tags": [
      "라멘",
      "일본식라면"
    ],
    "phone": null,
    "address": "서울특별시 노원구 동일로186길 50 1층 쇼지키",
    "latitude": 37.6250919,
    "placeUrl": "https://www.instagram.com/syojiki_ramen",
    "longitude": 127.0757233,
    "thumbnailUrl": "/assets/default-ramen.svg"
  },
  {
    "name": "모바면가 노원점",
    "tags": [
      "라멘",
      "일본식라면"
    ],
    "phone": null,
    "address": "서울특별시 노원구 상계로3길 16 1층 2호",
    "latitude": 37.6570419,
    "placeUrl": null,
    "longitude": 127.062468,
    "thumbnailUrl": "/assets/default-ramen.svg"
  },
  {
    "name": "멘야고코로",
    "tags": [
      "라멘",
      "일본식라면"
    ],
    "phone": null,
    "address": "경기도 수원시 영통구 월드컵로179번길 16 1층",
    "latitude": 37.2779634,
    "placeUrl": "https://www.facebook.com/menyagokoro",
    "longitude": 127.0454055,
    "thumbnailUrl": "/assets/default-ramen.svg"
  },
  {
    "name": "멘츠루 서현점",
    "tags": [
      "라멘",
      "일본식라면"
    ],
    "phone": null,
    "address": "경기도 성남시 분당구 서현로210번길 14 1층 110호, 111호",
    "latitude": 37.3862377,
    "placeUrl": "https://www.instagram.com/menchuru_seohyeon/",
    "longitude": 127.1245931,
    "thumbnailUrl": "/assets/default-ramen.svg"
  },
  {
    "name": "멘야카오리 분당정자점",
    "tags": [
      "라멘",
      "일본식라면"
    ],
    "phone": null,
    "address": "경기도 성남시 분당구 성남대로 295 대림아크로텔 107호",
    "latitude": 37.362996,
    "placeUrl": "http://menyakaori.co.kr",
    "longitude": 127.1078087,
    "thumbnailUrl": "/assets/default-ramen.svg"
  },
  {
    "name": "클준빛날영",
    "tags": [
      "라멘",
      "일본식라면"
    ],
    "phone": null,
    "address": "경기도 성남시 분당구 판교역로 240",
    "latitude": 37.4021113,
    "placeUrl": null,
    "longitude": 127.1105401,
    "thumbnailUrl": "/assets/default-ramen.svg"
  },
  {
    "name": "이황식당",
    "tags": [
      "라멘",
      "일본식라면"
    ],
    "phone": null,
    "address": "경기도 성남시 분당구 판교역로 230 삼환하이펙스 B동 104호",
    "latitude": 37.401359,
    "placeUrl": null,
    "longitude": 127.1102313,
    "thumbnailUrl": "/assets/default-ramen.svg"
  },
  {
    "name": "큐슈울트라아멘 송도스마트스퀘어점",
    "tags": [
      "라멘",
      "일본식라면"
    ],
    "phone": null,
    "address": "인천광역시 연수구 송도미래로11번길 27 에이동 지상1층 에이104호",
    "latitude": 37.3710904,
    "placeUrl": "https://큐슈울트라아멘.com",
    "longitude": 126.6494931,
    "thumbnailUrl": "/assets/default-ramen.svg"
  },
  {
    "name": "멘지 송도학원가점",
    "tags": [
      "라멘",
      "일본식라면"
    ],
    "phone": null,
    "address": "인천광역시 연수구 신송로 164 1층 104호",
    "latitude": 37.3981122,
    "placeUrl": null,
    "longitude": 126.6487537,
    "thumbnailUrl": "/assets/default-ramen.svg"
  },
  {
    "name": "멘지 신중동역점",
    "tags": [
      "라멘",
      "일본식라면"
    ],
    "phone": null,
    "address": "경기도 부천시 원미구 길주로 288 106호",
    "latitude": 37.5027666,
    "placeUrl": "https://www.instagram.com/menji_sinjungdong/",
    "longitude": 126.7743651,
    "thumbnailUrl": "/assets/default-ramen.svg"
  },
  {
    "name": "큐슈울트라아멘 부천시청점",
    "tags": [
      "라멘",
      "일본식라면"
    ],
    "phone": null,
    "address": "경기도 부천시 원미구 길주로 234 1층 1048호",
    "latitude": 37.5032053,
    "placeUrl": "https://www.instagram.com/ultraamen_bucheon/",
    "longitude": 126.7681627,
    "thumbnailUrl": "/assets/default-ramen.svg"
  },
  {
    "name": "우마이식당",
    "tags": [
      "라멘",
      "일본식라면"
    ],
    "phone": null,
    "address": "경기도 안양시 동안구 평촌대로223번길 52 2층 우마이식당",
    "latitude": 37.3907882,
    "placeUrl": "https://www.instagram.com/woomai_?igsh=MXFwMjA1MHJhdTV2Zw==",
    "longitude": 126.952741,
    "thumbnailUrl": "/assets/default-ramen.svg"
  },
  {
    "name": "멘지 안양범계점",
    "tags": [
      "라멘",
      "일본식라면"
    ],
    "phone": null,
    "address": "경기도 안양시 동안구 시민대로 190 102동 2층 221호",
    "latitude": 37.3909145,
    "placeUrl": "https://www.instagram.com/menji_ramen",
    "longitude": 126.9523159,
    "thumbnailUrl": "/assets/default-ramen.svg"
  },
  {
    "name": "고오루덴",
    "tags": [
      "라멘",
      "일본식라면"
    ],
    "phone": null,
    "address": "경기도 안양시 동안구 시민대로159번길 25 1층 122호(비산동, Fest a vial)",
    "latitude": 37.3907454,
    "placeUrl": null,
    "longitude": 126.9476112,
    "thumbnailUrl": "/assets/default-ramen.svg"
  },
  {
    "name": "안다미로 민락점",
    "tags": [
      "라멘",
      "일본식라면"
    ],
    "phone": null,
    "address": "경기도 의정부시 오목로205번길 67 (민락동, 파워프라자) 1층 103호",
    "latitude": 37.7461342,
    "placeUrl": "https://www.instagram.com/andamiro_ramen?igsh=MWc5ODR4a2cxZW1laA%3D%3D&utm_source=qr",
    "longitude": 127.0952034,
    "thumbnailUrl": "/assets/default-ramen.svg"
  },
  {
    "name": "키모리",
    "tags": [
      "라멘",
      "일본식라면"
    ],
    "phone": null,
    "address": "경기도 의정부시 신흥로258번길 13 1층",
    "latitude": 37.7391975,
    "placeUrl": "https://www.instagram.com/kimori_ramen",
    "longitude": 127.0440803,
    "thumbnailUrl": "/assets/default-ramen.svg"
  },
  {
    "name": "쇼오텐 덕천본점",
    "tags": [
      "라멘",
      "일본식라면"
    ],
    "phone": null,
    "address": "부산광역시 북구 만덕대로40번길 33 1층 쇼오텐",
    "latitude": 35.209593,
    "placeUrl": "https://www.instagram.com/shotenzc",
    "longitude": 129.0100931,
    "thumbnailUrl": "/assets/default-ramen.svg"
  },
  {
    "name": "코하루",
    "tags": [
      "라멘",
      "일본식라면"
    ],
    "phone": null,
    "address": "부산광역시 금정구 부산대학로38번길 16",
    "latitude": 35.2320006,
    "placeUrl": null,
    "longitude": 129.0874246,
    "thumbnailUrl": "/assets/default-ramen.svg"
  },
  {
    "name": "나가하마만게츠",
    "tags": [
      "라멘",
      "일본식라면"
    ],
    "phone": null,
    "address": "부산광역시 해운대구 우동1로 57 대영빌딩1층",
    "latitude": 35.1665856,
    "placeUrl": "https://app.catchtable.co.kr/ct/shop/mangetsu",
    "longitude": 129.1575255,
    "thumbnailUrl": "/assets/default-ramen.svg"
  },
  {
    "name": "복동이네오지상",
    "tags": [
      "라멘",
      "일본식라면"
    ],
    "phone": null,
    "address": "부산광역시 부산진구 서전로9번길 49 1층",
    "latitude": 35.159825,
    "placeUrl": "https://www.youtube.com/@Bokdongeneozisang",
    "longitude": 129.0615802,
    "thumbnailUrl": "/assets/default-ramen.svg"
  },
  {
    "name": "부타갱스터",
    "tags": [
      "라멘",
      "일본식라면"
    ],
    "phone": null,
    "address": "부산광역시 부산진구 동천로 51 1층",
    "latitude": 35.1532792,
    "placeUrl": "https://www.instagram.com/butagangster",
    "longitude": 129.0622276,
    "thumbnailUrl": "/assets/default-ramen.svg"
  },
  {
    "name": "멘지 대구동성로점",
    "tags": [
      "라멘",
      "일본식라면"
    ],
    "phone": null,
    "address": "대구광역시 중구 동성로1길 12 1층",
    "latitude": 35.8667909,
    "placeUrl": "https://app.catchtable.co.kr/ct/shop/menji_daegu?from=share&type=WAITING",
    "longitude": 128.5942158,
    "thumbnailUrl": "/assets/default-ramen.svg"
  },
  {
    "name": "큐산 동성로",
    "tags": [
      "라멘",
      "일본식라면"
    ],
    "phone": null,
    "address": "대구광역시 중구 동성로2길 49-17 1층",
    "latitude": 35.8682153,
    "placeUrl": "http://www.instagram.com/kyusanramen",
    "longitude": 128.5959013,
    "thumbnailUrl": "/assets/default-ramen.svg"
  },
  {
    "name": "츠루멘 대구",
    "tags": [
      "라멘",
      "일본식라면"
    ],
    "phone": null,
    "address": "대구광역시 중구 달구벌대로 2109-23",
    "latitude": 35.8663809,
    "placeUrl": "https://www.instagram.com/tsurumen_official",
    "longitude": 128.5939646,
    "thumbnailUrl": "/assets/default-ramen.svg"
  },
  {
    "name": "멘야마쯔리 동성로점",
    "tags": [
      "라멘",
      "일본식라면"
    ],
    "phone": null,
    "address": "대구광역시 중구 동성로3길 75",
    "latitude": 35.8687706,
    "placeUrl": "https://www.instagram.com/menyamatsuri_/",
    "longitude": 128.5980953,
    "thumbnailUrl": "/assets/default-ramen.svg"
  },
  {
    "name": "츄카소바텐 탄방점",
    "tags": [
      "라멘",
      "일본식라면"
    ],
    "phone": null,
    "address": "대전광역시 서구 남선로9번길 63-15 1층",
    "latitude": 36.3460218,
    "placeUrl": "https://www.instagram.com/chukasoba.ten",
    "longitude": 127.3951114,
    "thumbnailUrl": "/assets/default-ramen.svg"
  },
  {
    "name": "멘야마쯔리 상무점",
    "tags": [
      "라멘",
      "일본식라면"
    ],
    "phone": null,
    "address": "전남광주통합특별시 서구 시청로 57 1층 멘야마쯔리",
    "latitude": 35.1537575,
    "placeUrl": "https://www.instagram.com/sm_manya_",
    "longitude": 126.8511648,
    "thumbnailUrl": "/assets/default-ramen.svg"
  },
  {
    "name": "쿠로시로",
    "tags": [
      "라멘",
      "일본식라면"
    ],
    "phone": null,
    "address": "전남광주통합특별시 동구 금남로 241-7 쿠로시로",
    "latitude": 35.1486837,
    "placeUrl": "https://www.instagram.com/kuro_shiro_ramen",
    "longitude": 126.9184069,
    "thumbnailUrl": "/assets/default-ramen.svg"
  },
  {
    "name": "멘야마쯔리 울산달동점",
    "tags": [
      "라멘",
      "일본식라면"
    ],
    "phone": null,
    "address": "울산광역시 남구 왕생로66번길 15 1층 103호",
    "latitude": 35.5397954,
    "placeUrl": "http://멘야마쯔리.com/",
    "longitude": 129.3328441,
    "thumbnailUrl": "/assets/default-ramen.svg"
  },
  {
    "name": "요부코 울산삼산동본점",
    "tags": [
      "라멘",
      "일본식라면"
    ],
    "phone": null,
    "address": "울산광역시 남구 꽃대나리로51번길 13 103호 요부코",
    "latitude": 35.5349294,
    "placeUrl": "https://www.instagram.com/_yobuco_",
    "longitude": 129.3353154,
    "thumbnailUrl": "/assets/default-ramen.svg"
  },
  {
    "name": "멘타이쇼",
    "tags": [
      "라멘",
      "일본식라면"
    ],
    "phone": null,
    "address": "울산광역시 남구 월평로195번길 1 1층 101호",
    "latitude": 35.5462708,
    "placeUrl": "https://www.instagram.com/men_taishow",
    "longitude": 129.3260563,
    "thumbnailUrl": "/assets/default-ramen.svg"
  },
  {
    "name": "큐슈울트라아멘 AK&세종점",
    "tags": [
      "라멘",
      "일본식라면"
    ],
    "phone": null,
    "address": "세종특별자치시 한누리대로 411 AK& 세종점 3층",
    "latitude": 36.5011321,
    "placeUrl": "https://www.instagram.com/kyushu.ultraamen_aksejong",
    "longitude": 127.2588509,
    "thumbnailUrl": "/assets/default-ramen.svg"
  },
  {
    "name": "덴까이",
    "tags": [
      "라멘",
      "일본식라면"
    ],
    "phone": null,
    "address": "세종특별자치시 한누리대로 211 109호 덴까이",
    "latitude": 36.4835757,
    "placeUrl": null,
    "longitude": 127.259467,
    "thumbnailUrl": "/assets/default-ramen.svg"
  },
  {
    "name": "멘야케이 금암본점",
    "tags": [
      "라멘",
      "일본식라면"
    ],
    "phone": null,
    "address": "전북특별자치도 전주시 덕진구 떡전4길 18 멘야케이",
    "latitude": 35.8376161,
    "placeUrl": "https://litt.ly/menyakei1",
    "longitude": 127.1294769,
    "thumbnailUrl": "/assets/default-ramen.svg"
  },
  {
    "name": "도파멘",
    "tags": [
      "라멘",
      "일본식라면"
    ],
    "phone": null,
    "address": "전북특별자치도 전주시 완산구 전라감영2길 6 1층",
    "latitude": 35.8153114,
    "placeUrl": "https://www.instagram.com/ramenbar_dopamen?igsh=ZGY0YnJyNmhqMHA2&utm_source=qr",
    "longitude": 127.1423698,
    "thumbnailUrl": "/assets/default-ramen.svg"
  },
  {
    "name": "멘야케이 전주신시가지점",
    "tags": [
      "라멘",
      "일본식라면"
    ],
    "phone": null,
    "address": "전북특별자치도 전주시 완산구 홍산남로 14 1층 A101호",
    "latitude": 35.8156707,
    "placeUrl": "https://litt.ly/menyakei2",
    "longitude": 127.1033625,
    "thumbnailUrl": "/assets/default-ramen.svg"
  },
  {
    "name": "치쿠린",
    "tags": [
      "라멘",
      "일본식라면"
    ],
    "phone": null,
    "address": "전북특별자치도 전주시 덕진구 명륜3길 9-1 지하1층 치쿠린",
    "latitude": 35.842363,
    "placeUrl": "http://www.instagram.com/cqurin.ramen",
    "longitude": 127.1270408,
    "thumbnailUrl": "/assets/default-ramen.svg"
  },
  {
    "name": "쿄우노식당 오창호수공원본점",
    "tags": [
      "라멘",
      "일본식라면"
    ],
    "phone": null,
    "address": "충청북도 청주시 청원구 오창읍 양청택지로 121 1층 102호",
    "latitude": 36.7155097,
    "placeUrl": null,
    "longitude": 127.4215462,
    "thumbnailUrl": "/assets/default-ramen.svg"
  },
  {
    "name": "멘야마쯔리 충북대점",
    "tags": [
      "라멘",
      "일본식라면"
    ],
    "phone": null,
    "address": "충청북도 청주시 서원구 내수동로102번길 54 1층 멘야마쯔리 충북대점",
    "latitude": 36.6316795,
    "placeUrl": "http://멘야마쯔리.com",
    "longitude": 127.456634,
    "thumbnailUrl": "/assets/default-ramen.svg"
  },
  {
    "name": "멘야마쯔리 쌍용본점",
    "tags": [
      "라멘",
      "일본식라면"
    ],
    "phone": null,
    "address": "충청남도 천안시 서북구 쌍용14길 25 1층 멘야마쯔리",
    "latitude": 36.7985929,
    "placeUrl": "https://멘야마쯔리.com",
    "longitude": 127.120327,
    "thumbnailUrl": "/assets/default-ramen.svg"
  },
  {
    "name": "멘야마쯔리 신부점",
    "tags": [
      "라멘",
      "일본식라면"
    ],
    "phone": null,
    "address": "충청남도 천안시 동남구 만남로 18 휴먼빌딩 1층",
    "latitude": 36.8182353,
    "placeUrl": "https://www.instagram.com/menyamatsuri_no1",
    "longitude": 127.1541936,
    "thumbnailUrl": "/assets/default-ramen.svg"
  },
  {
    "name": "멘야 타마시",
    "tags": [
      "라멘",
      "일본식라면"
    ],
    "phone": null,
    "address": "충청남도 천안시 서북구 불당25로 142 골든프라자 1층 117호",
    "latitude": 36.8136989,
    "placeUrl": "https://www.instagram.com/menya_tamashi",
    "longitude": 127.1076768,
    "thumbnailUrl": "/assets/default-ramen.svg"
  },
  {
    "name": "멘야마쯔리 아산탕정점",
    "tags": [
      "라멘",
      "일본식라면"
    ],
    "phone": null,
    "address": "충청남도 아산시 탕정면 탕정면로8번길 51-5",
    "latitude": 36.7968165,
    "placeUrl": "https://www.instagram.com/menyamatsuri_no2",
    "longitude": 127.061125,
    "thumbnailUrl": "/assets/default-ramen.svg"
  },
  {
    "name": "멘야하나비 아산탕정역점",
    "tags": [
      "라멘",
      "일본식라면"
    ],
    "phone": null,
    "address": "충청남도 아산시 탕정면 한들물빛5로 36 i동 1층 107호",
    "latitude": 36.787441,
    "placeUrl": "https://www.instagram.com/menya_asan",
    "longitude": 127.0871604,
    "thumbnailUrl": "/assets/default-ramen.svg"
  },
  {
    "name": "큐슈울트라아멘 춘천명동점",
    "tags": [
      "라멘",
      "일본식라면"
    ],
    "phone": null,
    "address": "강원특별자치도 춘천시 중앙로67번길 9 A동 1층",
    "latitude": 37.8787779,
    "placeUrl": "https://www.instagram.com/kyu_ultraamen_chuncheon?igsh=YnZ5ZWxoeDRyNGFu",
    "longitude": 127.7271372,
    "thumbnailUrl": "/assets/default-ramen.svg"
  },
  {
    "name": "멘야하코",
    "tags": [
      "라멘",
      "일본식라면"
    ],
    "phone": null,
    "address": "강원특별자치도 원주시 능라동길 37 1층 106호",
    "latitude": 37.334003,
    "placeUrl": "http://instagram.com/hako_wonju",
    "longitude": 127.9289018,
    "thumbnailUrl": "/assets/default-ramen.svg"
  },
  {
    "name": "멘요이",
    "tags": [
      "라멘",
      "일본식라면"
    ],
    "phone": null,
    "address": "강원특별자치도 원주시 문막읍 왕건로 144 1층",
    "latitude": 37.3316007,
    "placeUrl": "https://www.instagram.com/menyoi_wonju",
    "longitude": 127.8317046,
    "thumbnailUrl": "/assets/default-ramen.svg"
  },
  {
    "name": "키마마",
    "tags": [
      "라멘",
      "일본식라면"
    ],
    "phone": null,
    "address": "강원특별자치도 강릉시 연곡면 홍질목길 12 상가1층 205호",
    "latitude": 37.8681347,
    "placeUrl": "https://www.instagram.com/kimama_gn",
    "longitude": 128.844023,
    "thumbnailUrl": "/assets/default-ramen.svg"
  },
  {
    "name": "포항 순이",
    "tags": [
      "라멘",
      "일본식라면"
    ],
    "phone": null,
    "address": "경상북도 포항시 남구 효자동길7번길 5-1 1층 순이",
    "latitude": 36.0079734,
    "placeUrl": "https://www.instagram.com/suni.onlysuni",
    "longitude": 129.3293909,
    "thumbnailUrl": "/assets/default-ramen.svg"
  },
  {
    "name": "베라보제면소 본점",
    "tags": [
      "라멘",
      "일본식라면"
    ],
    "phone": null,
    "address": "경상북도 포항시 북구 장량로174번길 6-6 1층",
    "latitude": 36.0813009,
    "placeUrl": "https://www.instagram.com/ramen_beravo",
    "longitude": 129.3991521,
    "thumbnailUrl": "/assets/default-ramen.svg"
  },
  {
    "name": "히루노츠키",
    "tags": [
      "라멘",
      "일본식라면"
    ],
    "phone": null,
    "address": "경상북도 포항시 북구 흥해읍 초곡지구로52번길 10-5 1층 히루노츠키",
    "latitude": 36.0972617,
    "placeUrl": "https://www.instagram.com/hiruno.tsuki?igsh=MTk0ZzlrMnEzcDl6Mw%3D%3D&utm_source=qr",
    "longitude": 129.3387312,
    "thumbnailUrl": "/assets/default-ramen.svg"
  },
  {
    "name": "네코짱",
    "tags": [
      "라멘",
      "일본식라면"
    ],
    "phone": null,
    "address": "경상북도 경주시 계림로 79",
    "latitude": 35.8413286,
    "placeUrl": null,
    "longitude": 129.213427,
    "thumbnailUrl": "/assets/default-ramen.svg"
  },
  {
    "name": "이케멘스 본점",
    "tags": [
      "라멘",
      "일본식라면"
    ],
    "phone": null,
    "address": "경상남도 창원시 성산구 중앙대로 95 1층 109호",
    "latitude": 35.223709,
    "placeUrl": "https://www.instagram.com/ikemens_ramen",
    "longitude": 128.6785738,
    "thumbnailUrl": "/assets/default-ramen.svg"
  },
  {
    "name": "멘사무소 김해내외점",
    "tags": [
      "라멘",
      "일본식라면"
    ],
    "phone": null,
    "address": "경상남도 김해시 내외중앙로 27 107호",
    "latitude": 35.2323068,
    "placeUrl": "https://mensamuso.com/",
    "longitude": 128.8658217,
    "thumbnailUrl": "/assets/default-ramen.svg"
  },
  {
    "name": "켄메이 장유본점",
    "tags": [
      "라멘",
      "일본식라면"
    ],
    "phone": null,
    "address": "경상남도 김해시 율하2로222번길 2-17 1층",
    "latitude": 35.1731825,
    "placeUrl": "https://www.instagram.com/kenmei_ramen?igsh=cWdxZDY3MWExaWVt",
    "longitude": 128.8211467,
    "thumbnailUrl": "/assets/default-ramen.svg"
  },
  {
    "name": "멘사무소 김해장유율하점",
    "tags": [
      "라멘",
      "일본식라면"
    ],
    "phone": null,
    "address": "경상남도 김해시 율하3로 50 1층 102호",
    "latitude": 35.1722595,
    "placeUrl": "https://mensamuso.com",
    "longitude": 128.8150753,
    "thumbnailUrl": "/assets/default-ramen.svg"
  },
  {
    "name": "류헤이",
    "tags": [
      "라멘",
      "일본식라면"
    ],
    "phone": null,
    "address": "경상남도 진주시 가좌길 28 1층",
    "latitude": 35.1567749,
    "placeUrl": "https://www.instagram.com/jinju_ryuhey/?hl=ko",
    "longitude": 128.1048337,
    "thumbnailUrl": "/assets/default-ramen.svg"
  },
  {
    "name": "멘노카미",
    "tags": [
      "라멘",
      "일본식라면"
    ],
    "phone": null,
    "address": "경상남도 진주시 충의로 20-26 106호",
    "latitude": 35.1750167,
    "placeUrl": null,
    "longitude": 128.1484873,
    "thumbnailUrl": "/assets/default-ramen.svg"
  },
  {
    "name": "수유라멘",
    "tags": [
      "라멘",
      "일본식라면"
    ],
    "phone": null,
    "address": "서울특별시 강북구 한천로131길 17 1층 수유라멘",
    "latitude": 37.638475,
    "placeUrl": "https://www.instagram.com/ted_an98?igsh=dXV3Y3lsZjUyZnFk&utm_source=qr",
    "longitude": 127.0274081,
    "thumbnailUrl": "/assets/default-ramen.svg"
  },
  {
    "name": "잇쇼니라멘 문정본점",
    "tags": [
      "라멘",
      "일본식라면"
    ],
    "phone": null,
    "address": "서울특별시 송파구 법원로 114 엠스테이트 E동 지1층 B166",
    "latitude": 37.4854442,
    "placeUrl": "https://youtube.com/@잇쇼니라멘",
    "longitude": 127.120999,
    "thumbnailUrl": "/assets/default-ramen.svg"
  },
  {
    "name": "태양의토마토라멘 강남점",
    "tags": [
      "라멘",
      "일본식라면"
    ],
    "phone": null,
    "address": "서울특별시 강남구 강남대로106길 7 2층",
    "latitude": 37.5029758,
    "placeUrl": "https://www.instagram.com/taitoma_korea",
    "longitude": 127.0262365,
    "thumbnailUrl": "/assets/default-ramen.svg"
  },
  {
    "name": "코지라멘 선릉본점",
    "tags": [
      "라멘",
      "일본식라면"
    ],
    "phone": null,
    "address": "서울특별시 강남구 선릉로86길 6-4 지상 1층",
    "latitude": 37.502876,
    "placeUrl": "https://blog.naver.com/cozyramen",
    "longitude": 127.050407,
    "thumbnailUrl": "/assets/default-ramen.svg"
  },
  {
    "name": "오또상라멘 압구정본점",
    "tags": [
      "라멘",
      "일본식라면"
    ],
    "phone": null,
    "address": "서울특별시 강남구 논현로175길 40 1층 102호, 104호",
    "latitude": 37.525023,
    "placeUrl": "https://ottosangramen.wywh.co.kr/",
    "longitude": 127.0253839,
    "thumbnailUrl": "/assets/default-ramen.svg"
  },
  {
    "name": "라멘트럭 건대점",
    "tags": [
      "라멘",
      "일본식라면"
    ],
    "phone": null,
    "address": "서울특별시 광진구 광나루로22가길 18 1층",
    "latitude": 37.5456676,
    "placeUrl": "https://www.instagram.com/ramentruck_official",
    "longitude": 127.075958,
    "thumbnailUrl": "/assets/default-ramen.svg"
  },
  {
    "name": "라멘쨩",
    "tags": [
      "라멘",
      "일본식라면"
    ],
    "phone": null,
    "address": "서울특별시 송파구 올림픽로35길 112 장미B상가 지하1층 6호",
    "latitude": 37.5177941,
    "placeUrl": null,
    "longitude": 127.1017995,
    "thumbnailUrl": "/assets/default-ramen.svg"
  },
  {
    "name": "태양의토마토라멘 송리단길점",
    "tags": [
      "라멘",
      "일본식라면"
    ],
    "phone": null,
    "address": "서울특별시 송파구 백제고분로45길 22-1 2층",
    "latitude": 37.5101317,
    "placeUrl": "http://taitomakorea.com/",
    "longitude": 127.1091716,
    "thumbnailUrl": "/assets/default-ramen.svg"
  },
  {
    "name": "오카구라 라멘",
    "tags": [
      "라멘",
      "일본식라면"
    ],
    "phone": null,
    "address": "서울특별시 용산구 이태원로14길 26 1층",
    "latitude": 37.533201,
    "placeUrl": null,
    "longitude": 126.9908598,
    "thumbnailUrl": "/assets/default-ramen.svg"
  },
  {
    "name": "와다라멘 이태원점",
    "tags": [
      "라멘",
      "일본식라면"
    ],
    "phone": null,
    "address": "서울특별시 용산구 녹사평대로32길 9 1층",
    "latitude": 37.533763,
    "placeUrl": null,
    "longitude": 126.9893877,
    "thumbnailUrl": "/assets/default-ramen.svg"
  },
  {
    "name": "오빠라멘",
    "tags": [
      "라멘",
      "일본식라면"
    ],
    "phone": null,
    "address": "서울특별시 용산구 보광로 124",
    "latitude": 37.5338913,
    "placeUrl": null,
    "longitude": 126.9943114,
    "thumbnailUrl": "/assets/default-ramen.svg"
  },
  {
    "name": "하나비라멘",
    "tags": [
      "라멘",
      "일본식라면"
    ],
    "phone": null,
    "address": "경기도 수원시 팔달구 권광로 184 나혜석거리 하나비라멘",
    "latitude": 37.2640413,
    "placeUrl": "https://www.instagram.com/hanabiramenkr",
    "longitude": 127.0336387,
    "thumbnailUrl": "/assets/default-ramen.svg"
  },
  {
    "name": "이츠모라멘 수원점",
    "tags": [
      "라멘",
      "일본식라면"
    ],
    "phone": null,
    "address": "경기도 수원시 팔달구 권광로180번길 45 1층 101호",
    "latitude": 37.2631224,
    "placeUrl": "https://www.instagram.com/itsumosw",
    "longitude": 127.0352751,
    "thumbnailUrl": "/assets/default-ramen.svg"
  },
  {
    "name": "도이라멘",
    "tags": [
      "라멘",
      "일본식라면"
    ],
    "phone": null,
    "address": "경기도 수원시 영통구 월드컵로150번길 26",
    "latitude": 37.2782455,
    "placeUrl": "https://www.instagram.com/doi_ramen/",
    "longitude": 127.0500437,
    "thumbnailUrl": "/assets/default-ramen.svg"
  },
  {
    "name": "아카리 라멘",
    "tags": [
      "라멘",
      "일본식라면"
    ],
    "phone": null,
    "address": "경기도 성남시 분당구 성남대로171번길 17 1층 112호",
    "latitude": 37.3512444,
    "placeUrl": "https://www.instagram.com/akari.ramen",
    "longitude": 127.1069775,
    "thumbnailUrl": "/assets/default-ramen.svg"
  },
  {
    "name": "니고라멘",
    "tags": [
      "라멘",
      "일본식라면"
    ],
    "phone": null,
    "address": "경기도 성남시 분당구 황새울로214번길 8 ms프라자 1층 107호",
    "latitude": 37.3781345,
    "placeUrl": null,
    "longitude": 127.1125091,
    "thumbnailUrl": "/assets/default-ramen.svg"
  },
  {
    "name": "태양의토마토라멘 분당수내역점",
    "tags": [
      "라멘",
      "일본식라면"
    ],
    "phone": null,
    "address": "경기도 성남시 분당구 황새울로 234 1층 101호",
    "latitude": 37.3790866,
    "placeUrl": null,
    "longitude": 127.1141212,
    "thumbnailUrl": "/assets/default-ramen.svg"
  },
  {
    "name": "더라멘워 현대백화점 판교점",
    "tags": [
      "라멘",
      "일본식라면"
    ],
    "phone": null,
    "address": "경기도 성남시 분당구 판교역로146번길 20 B1",
    "latitude": 37.3927946,
    "placeUrl": "https://www.instagram.com/theramenwar_thehyundai_seoul/?hl=ko",
    "longitude": 127.1120875,
    "thumbnailUrl": "/assets/default-ramen.svg"
  },
  {
    "name": "쿄다이라멘",
    "tags": [
      "라멘",
      "일본식라면"
    ],
    "phone": null,
    "address": "경기도 성남시 분당구 판교공원로5길 1 103",
    "latitude": 37.3904097,
    "placeUrl": null,
    "longitude": 127.0884694,
    "thumbnailUrl": "/assets/default-ramen.svg"
  },
  {
    "name": "계단라멘 일산본점",
    "tags": [
      "라멘",
      "일본식라면"
    ],
    "phone": null,
    "address": "경기도 고양시 일산동구 율천로7번길 10 1층",
    "latitude": 37.6668712,
    "placeUrl": "https://youtu.be/bXXFy9B1VA4",
    "longitude": 126.7838996,
    "thumbnailUrl": "/assets/default-ramen.svg"
  },
  {
    "name": "라멘오 일산 밤가시마을 밤리단길점",
    "tags": [
      "라멘",
      "일본식라면"
    ],
    "phone": null,
    "address": "경기도 고양시 일산동구 산두로273번길 21 1층",
    "latitude": 37.6743078,
    "placeUrl": "https://www.instagram.com/rameno_ilsan",
    "longitude": 126.7770803,
    "thumbnailUrl": "/assets/default-ramen.svg"
  },
  {
    "name": "교레츠라멘 부평본점",
    "tags": [
      "라멘",
      "일본식라면"
    ],
    "phone": null,
    "address": "인천광역시 부평구 길주남로 19-1 1층 101호",
    "latitude": 37.5048286,
    "placeUrl": "http://kyouretsu-ramen.com/m/",
    "longitude": 126.723759,
    "thumbnailUrl": "/assets/default-ramen.svg"
  },
  {
    "name": "라멘81번옥 구월점",
    "tags": [
      "라멘",
      "일본식라면"
    ],
    "phone": null,
    "address": "인천광역시 남동구 성말로13번길 15 메인프라자 1층 128호",
    "latitude": 37.4460685,
    "placeUrl": "https://www.instagram.com/ramen_81_",
    "longitude": 126.7016739,
    "thumbnailUrl": "/assets/default-ramen.svg"
  },
  {
    "name": "해라멘",
    "tags": [
      "라멘",
      "일본식라면"
    ],
    "phone": null,
    "address": "인천광역시 남동구 성말로13번길 15 126호",
    "latitude": 37.4460724,
    "placeUrl": "https://www.instagram.com/haeramen2011",
    "longitude": 126.7015613,
    "thumbnailUrl": "/assets/default-ramen.svg"
  },
  {
    "name": "라멘나츠",
    "tags": [
      "라멘",
      "일본식라면"
    ],
    "phone": null,
    "address": "인천광역시 연수구 인천타워대로 257 c동 113호",
    "latitude": 37.3936131,
    "placeUrl": "https://www.instagram.com/ramen.natsu",
    "longitude": 126.6322641,
    "thumbnailUrl": "/assets/default-ramen.svg"
  },
  {
    "name": "단바쿠라멘",
    "tags": [
      "라멘",
      "일본식라면"
    ],
    "phone": null,
    "address": "인천광역시 연수구 아트센터대로 203 푸르지오시티 B동 132호",
    "latitude": 37.3953626,
    "placeUrl": null,
    "longitude": 126.6324617,
    "thumbnailUrl": "/assets/default-ramen.svg"
  },
  {
    "name": "아사히라멘",
    "tags": [
      "라멘",
      "일본식라면"
    ],
    "phone": null,
    "address": "경기도 부천시 원미구 소향로 117 101호",
    "latitude": 37.5027284,
    "placeUrl": null,
    "longitude": 126.7608736,
    "thumbnailUrl": "/assets/default-ramen.svg"
  },
  {
    "name": "잇쇼니라멘",
    "tags": [
      "라멘",
      "일본식라면"
    ],
    "phone": null,
    "address": "경기도 부천시 원미구 신흥로 170-1",
    "latitude": 37.4990722,
    "placeUrl": "http://www.instagram.com/isshoniramen",
    "longitude": 126.7786184,
    "thumbnailUrl": "/assets/default-ramen.svg"
  },
  {
    "name": "코요라멘",
    "tags": [
      "라멘",
      "일본식라면"
    ],
    "phone": null,
    "address": "경기도 용인시 기흥구 동백중앙로 245 동백문월드 나동 지하1층 b122호",
    "latitude": 37.2758513,
    "placeUrl": "https://www.instagram.com/koyo.ramen/profilecard/?igsh=MW0zOWFlM3NoMzBzNg==",
    "longitude": 127.1514632,
    "thumbnailUrl": "/assets/default-ramen.svg"
  },
  {
    "name": "우시라멘",
    "tags": [
      "라멘",
      "일본식라면"
    ],
    "phone": null,
    "address": "경기도 의정부시 시민로 39 대정프라자 101호",
    "latitude": 37.7385763,
    "placeUrl": null,
    "longitude": 127.0395917,
    "thumbnailUrl": "/assets/default-ramen.svg"
  },
  {
    "name": "무라라멘 해리단길 본점",
    "tags": [
      "라멘",
      "일본식라면"
    ],
    "phone": null,
    "address": "부산광역시 해운대구 우동1로 30 무라",
    "latitude": 35.164229,
    "placeUrl": "https://www.instagram.com/mura_haeundae/",
    "longitude": 129.1569989,
    "thumbnailUrl": "/assets/default-ramen.svg"
  },
  {
    "name": "쿠지라멘",
    "tags": [
      "라멘",
      "일본식라면"
    ],
    "phone": null,
    "address": "부산광역시 해운대구 우동2로 17 쿠지라멘",
    "latitude": 35.1662534,
    "placeUrl": null,
    "longitude": 129.1601503,
    "thumbnailUrl": "/assets/default-ramen.svg"
  },
  {
    "name": "상생라멘 해운대 본점",
    "tags": [
      "라멘",
      "일본식라면"
    ],
    "phone": null,
    "address": "부산광역시 해운대구 해운대로383번길 23 우2종합시장 5호, 6호",
    "latitude": 35.1704034,
    "placeUrl": null,
    "longitude": 129.1389146,
    "thumbnailUrl": "/assets/default-ramen.svg"
  },
  {
    "name": "샤이라멘",
    "tags": [
      "라멘",
      "일본식라면"
    ],
    "phone": null,
    "address": "대구광역시 동구 동부로32길 2",
    "latitude": 35.876871,
    "placeUrl": "https://www.instagram.com/shyramen_daegu",
    "longitude": 128.6307156,
    "thumbnailUrl": "/assets/default-ramen.svg"
  },
  {
    "name": "wcrd 나의피는라멘으로되어있어",
    "tags": [
      "라멘",
      "일본식라면"
    ],
    "phone": null,
    "address": "대구광역시 중구 공평로 55",
    "latitude": 35.8689509,
    "placeUrl": "https://www.instagram.com/w.c.r.d_daegu",
    "longitude": 128.5998023,
    "thumbnailUrl": "/assets/default-ramen.svg"
  },
  {
    "name": "로얄라멘",
    "tags": [
      "라멘",
      "일본식라면"
    ],
    "phone": null,
    "address": "대전광역시 서구 계룡로367번길 13",
    "latitude": 36.3533879,
    "placeUrl": "http://instagram.com/ramen_royal",
    "longitude": 127.369888,
    "thumbnailUrl": "/assets/default-ramen.svg"
  },
  {
    "name": "라멘 부보트",
    "tags": [
      "라멘",
      "일본식라면"
    ],
    "phone": null,
    "address": "대전광역시 서구 도안동로 6 이레리치빌딩 1층 117호",
    "latitude": 36.3057119,
    "placeUrl": "https://www.instagram.com/boo__bot",
    "longitude": 127.3534852,
    "thumbnailUrl": "/assets/default-ramen.svg"
  },
  {
    "name": "호시마츠라멘",
    "tags": [
      "라멘",
      "일본식라면"
    ],
    "phone": null,
    "address": "전남광주통합특별시 동구 제봉로110번길 15",
    "latitude": 35.148993,
    "placeUrl": "http://www.instagram.com/hosimatsu_official",
    "longitude": 126.9234265,
    "thumbnailUrl": "/assets/default-ramen.svg"
  },
  {
    "name": "라멘집입니다 울산무거점",
    "tags": [
      "라멘",
      "일본식라면"
    ],
    "phone": null,
    "address": "울산광역시 남구 문수로75번길 21",
    "latitude": 35.5404801,
    "placeUrl": null,
    "longitude": 129.2623972,
    "thumbnailUrl": "/assets/default-ramen.svg"
  },
  {
    "name": "심야라멘트럭 본점",
    "tags": [
      "라멘",
      "일본식라면"
    ],
    "phone": null,
    "address": "울산광역시 중구 중앙1길 7",
    "latitude": 35.5562022,
    "placeUrl": "https://www.instagram.com/simya_ramen_ulsan",
    "longitude": 129.3198505,
    "thumbnailUrl": "/assets/default-ramen.svg"
  },
  {
    "name": "라멘코티지",
    "tags": [
      "라멘",
      "일본식라면"
    ],
    "phone": null,
    "address": "세종특별자치시 한누리대로 2165 호려울마을7단지세종대방디엠시티상가 C동 1층 106호",
    "latitude": 36.4763988,
    "placeUrl": "https://www.instagram.com/ramen.cottage",
    "longitude": 127.285909,
    "thumbnailUrl": "/assets/default-ramen.svg"
  },
  {
    "name": "호시마츠생라멘",
    "tags": [
      "라멘",
      "일본식라면"
    ],
    "phone": null,
    "address": "전북특별자치도 전주시 완산구 전주객사2길 46-12",
    "latitude": 35.8190438,
    "placeUrl": "https://www.instagram.com/hosimatsu_official/",
    "longitude": 127.1414487,
    "thumbnailUrl": "/assets/default-ramen.svg"
  },
  {
    "name": "수라멘",
    "tags": [
      "라멘",
      "일본식라면"
    ],
    "phone": null,
    "address": "충청북도 청주시 흥덕구 직지대로757번길 6 1층",
    "latitude": 36.6449387,
    "placeUrl": "https://www.instagram.com/suramenbest?igsh=MWVzeHI4a3Z5Nndhag==",
    "longitude": 127.4764363,
    "thumbnailUrl": "/assets/default-ramen.svg"
  },
  {
    "name": "산카쿠 : 라멘&오니기리 불당점",
    "tags": [
      "라멘",
      "일본식라면"
    ],
    "phone": null,
    "address": "충청남도 천안시 서북구 불당22대로 86 124호",
    "latitude": 36.8154373,
    "placeUrl": "https://www.instagram.com/sankaku_official",
    "longitude": 127.1081509,
    "thumbnailUrl": "/assets/default-ramen.svg"
  },
  {
    "name": "마코토라멘",
    "tags": [
      "라멘",
      "일본식라면"
    ],
    "phone": null,
    "address": "강원특별자치도 춘천시 퇴계로105번길 7 영주빌딩 휴먼시아1차후문",
    "latitude": 37.8621129,
    "placeUrl": null,
    "longitude": 127.7323253,
    "thumbnailUrl": "/assets/default-ramen.svg"
  },
  {
    "name": "하카타33라멘",
    "tags": [
      "라멘",
      "일본식라면"
    ],
    "phone": null,
    "address": "강원특별자치도 원주시 천사로 14 101호",
    "latitude": 37.3474273,
    "placeUrl": "https://www.instagram.com/hakata33_ramen",
    "longitude": 127.9270892,
    "thumbnailUrl": "/assets/default-ramen.svg"
  },
  {
    "name": "미스터라멘 원주점",
    "tags": [
      "라멘",
      "일본식라면"
    ],
    "phone": null,
    "address": "강원특별자치도 원주시 남원로469번길 1-3 1층",
    "latitude": 37.3268562,
    "placeUrl": "https://www.instagram.com/mr.ramen_wj/",
    "longitude": 127.9425615,
    "thumbnailUrl": "/assets/default-ramen.svg"
  },
  {
    "name": "라멘 돈부리 이쿠조",
    "tags": [
      "라멘",
      "일본식라면"
    ],
    "phone": null,
    "address": "강원특별자치도 원주시 지정면 신지정로 177-2 102호 이쿠조",
    "latitude": 37.3732372,
    "placeUrl": null,
    "longitude": 127.8770919,
    "thumbnailUrl": "/assets/default-ramen.svg"
  },
  {
    "name": "이츠모라멘",
    "tags": [
      "라멘",
      "일본식라면"
    ],
    "phone": null,
    "address": "강원특별자치도 강릉시 초당원길 34 이츠모라멘",
    "latitude": 37.784797,
    "placeUrl": "http://www.instagram.com/itsumo_chodang",
    "longitude": 128.9160613,
    "thumbnailUrl": "/assets/default-ramen.svg"
  },
  {
    "name": "키라쿠라멘",
    "tags": [
      "라멘",
      "일본식라면"
    ],
    "phone": null,
    "address": "강원특별자치도 강릉시 율곡초교길11번길 32 1층",
    "latitude": 37.7656938,
    "placeUrl": "https://www.instagram.com/kiraku_ramen",
    "longitude": 128.8790442,
    "thumbnailUrl": "/assets/default-ramen.svg"
  },
  {
    "name": "라멘묘조",
    "tags": [
      "라멘",
      "일본식라면"
    ],
    "phone": null,
    "address": "경상북도 포항시 북구 장량로 140 1층 라멘묘조",
    "latitude": 36.0815393,
    "placeUrl": "https://www.instagram.com/ramen_myojo/",
    "longitude": 129.3955413,
    "thumbnailUrl": "/assets/default-ramen.svg"
  },
  {
    "name": "테츠로라멘",
    "tags": [
      "라멘",
      "일본식라면"
    ],
    "phone": null,
    "address": "경상북도 포항시 남구 효자동길 1 , 1층 테츠로라멘",
    "latitude": 36.0076819,
    "placeUrl": "https://www.instagram.com/ramenya_tetsuro",
    "longitude": 129.3300449,
    "thumbnailUrl": "/assets/default-ramen.svg"
  },
  {
    "name": "하루카 라멘",
    "tags": [
      "라멘",
      "일본식라면"
    ],
    "phone": null,
    "address": "경상북도 경주시 포석로1068번길 15-7 1층",
    "latitude": 35.8364211,
    "placeUrl": null,
    "longitude": 129.2112207,
    "thumbnailUrl": "/assets/default-ramen.svg"
  },
  {
    "name": "심야라멘트럭 경주점",
    "tags": [
      "라멘",
      "일본식라면"
    ],
    "phone": null,
    "address": "경상북도 경주시 원효로 64 101호",
    "latitude": 35.8420808,
    "placeUrl": "https://www.instagram.com/simya_ramen_gyeongju",
    "longitude": 129.207649,
    "thumbnailUrl": "/assets/default-ramen.svg"
  },
  {
    "name": "라멘집",
    "tags": [
      "라멘",
      "일본식라면"
    ],
    "phone": null,
    "address": "경상북도 경주시 북성로 115",
    "latitude": 35.8472936,
    "placeUrl": null,
    "longitude": 129.2143775,
    "thumbnailUrl": "/assets/default-ramen.svg"
  },
  {
    "name": "겐쇼심야라멘",
    "tags": [
      "라멘",
      "일본식라면"
    ],
    "phone": null,
    "address": "경상남도 창원시 진해구 진해대로 648 1층",
    "latitude": 35.1584906,
    "placeUrl": "https://catchtable.co.kr/simyaramen",
    "longitude": 128.686523,
    "thumbnailUrl": "/assets/default-ramen.svg"
  },
  {
    "name": "라멘야 상남점",
    "tags": [
      "라멘",
      "일본식라면"
    ],
    "phone": null,
    "address": "경상남도 창원시 성산구 중앙대로100번길 14 1층 113호",
    "latitude": 35.2224944,
    "placeUrl": "https://www.instagram.com/ramem_ya.cw/profilecard/?igsh=dnc4N21ibG12c3N4",
    "longitude": 128.6807346,
    "thumbnailUrl": "/assets/default-ramen.svg"
  },
  {
    "name": "오빠라멘",
    "tags": [
      "라멘",
      "일본식라면"
    ],
    "phone": null,
    "address": "경상남도 창원시 성산구 창이대로464번길 12 1층",
    "latitude": 35.2380205,
    "placeUrl": "https://www.instagram.com/5_pparamen?igshid=OGQ5ZDc2ODk2ZA==",
    "longitude": 128.6846528,
    "thumbnailUrl": "/assets/default-ramen.svg"
  },
  {
    "name": "카이조쿠라멘",
    "tags": [
      "라멘",
      "일본식라면"
    ],
    "phone": null,
    "address": "경상남도 창원시 성산구 용지로153번길 6 동양빌딩107호",
    "latitude": 35.2291121,
    "placeUrl": "https://www.instagram.com/kaizoku.ramen",
    "longitude": 128.6806778,
    "thumbnailUrl": "/assets/default-ramen.svg"
  },
  {
    "name": "우마이365라멘",
    "tags": [
      "라멘",
      "일본식라면"
    ],
    "phone": null,
    "address": "경상남도 김해시 해반천로130번길 11 1층",
    "latitude": 35.2599821,
    "placeUrl": "https://www.instagram.com/umai365_gimhae",
    "longitude": 128.8684719,
    "thumbnailUrl": "/assets/default-ramen.svg"
  },
  {
    "name": "김씨네라멘트럭",
    "tags": [
      "라멘",
      "일본식라면"
    ],
    "phone": null,
    "address": "경상남도 진주시 충의로 20-17 108호",
    "latitude": 35.1754982,
    "placeUrl": "http://www.facebook.com/Jinjutruck",
    "longitude": 128.1475346,
    "thumbnailUrl": "/assets/default-ramen.svg"
  },
  {
    "name": "오모이라멘 진주본점",
    "tags": [
      "라멘",
      "일본식라면"
    ],
    "phone": null,
    "address": "경상남도 진주시 솔밭로 148 1층",
    "latitude": 35.1823308,
    "placeUrl": null,
    "longitude": 128.106925,
    "thumbnailUrl": "/assets/default-ramen.svg"
  },
  {
    "name": "멘지 망원점",
    "tags": [
      "라멘",
      "일본식라면"
    ],
    "phone": null,
    "address": "서울특별시 마포구 월드컵로11길 8 103호 멘지",
    "latitude": 37.554868,
    "placeUrl": "http://www.instagram.com/ramen_menji/",
    "longitude": 126.9103557,
    "thumbnailUrl": "/assets/default-ramen.svg"
  },
  {
    "name": "시카메이",
    "tags": [
      "라멘",
      "일본식라면"
    ],
    "phone": null,
    "address": "서울특별시 마포구 월드컵로21길 61",
    "latitude": 37.5550123,
    "placeUrl": "https://www.instagram.com/shikamei_",
    "longitude": 126.9071809,
    "thumbnailUrl": "/assets/default-ramen.svg"
  },
  {
    "name": "류진",
    "tags": [
      "라멘",
      "일본식라면"
    ],
    "phone": null,
    "address": "서울특별시 마포구 월드컵로17길 64 지층",
    "latitude": 37.554666,
    "placeUrl": "https://app.catchtable.co.kr/ct/shop/ryujin",
    "longitude": 126.907468,
    "thumbnailUrl": "/assets/default-ramen.svg"
  },
  {
    "name": "희옥",
    "tags": [
      "라멘",
      "일본식라면"
    ],
    "phone": null,
    "address": "서울특별시 마포구 월드컵로19길 74 어쩌다가게 102호",
    "latitude": 37.554355,
    "placeUrl": "https://app.catchtable.co.kr/ct/shop/heeok_lamen?from=share&type=WAITING",
    "longitude": 126.9069268,
    "thumbnailUrl": "/assets/default-ramen.svg"
  },
  {
    "name": "무겐스위치",
    "tags": [
      "라멘",
      "일본식라면"
    ],
    "phone": null,
    "address": "서울특별시 마포구 동교로 242-13",
    "latitude": 37.5613823,
    "placeUrl": null,
    "longitude": 126.9251456,
    "thumbnailUrl": "/assets/default-ramen.svg"
  },
  {
    "name": "멘츠루 신촌점",
    "tags": [
      "라멘",
      "일본식라면"
    ],
    "phone": null,
    "address": "서울특별시 서대문구 신촌역로 43 1층",
    "latitude": 37.5589663,
    "placeUrl": "https://app.catchtable.co.kr/ct/shop/mentsurusc",
    "longitude": 126.9406214,
    "thumbnailUrl": "/assets/default-ramen.svg"
  },
  {
    "name": "멘지 신촌점",
    "tags": [
      "라멘",
      "일본식라면"
    ],
    "phone": null,
    "address": "서울특별시 서대문구 연세로9길 8 2층",
    "latitude": 37.5585778,
    "placeUrl": "https://blog.naver.com/menji_sinchon",
    "longitude": 126.9364737,
    "thumbnailUrl": "/assets/default-ramen.svg"
  },
  {
    "name": "렌게",
    "tags": [
      "라멘",
      "일본식라면"
    ],
    "phone": null,
    "address": "서울특별시 마포구 신촌로12길 31 1층 렌게",
    "latitude": 37.5549521,
    "placeUrl": null,
    "longitude": 126.9327191,
    "thumbnailUrl": "/assets/default-ramen.svg"
  },
  {
    "name": "멘야소바",
    "tags": [
      "라멘",
      "일본식라면"
    ],
    "phone": null,
    "address": "서울특별시 서대문구 연세로2길 83 1층",
    "latitude": 37.557168,
    "placeUrl": "https://www.instagram.com/manyasoba?igsh=MWczZGFwdDNub210OQ==",
    "longitude": 126.9414211,
    "thumbnailUrl": "/assets/default-ramen.svg"
  },
  {
    "name": "하카타분코",
    "tags": [
      "라멘",
      "일본식라면"
    ],
    "phone": null,
    "address": "서울특별시 마포구 독막로19길 43",
    "latitude": 37.5489357,
    "placeUrl": "http://www.instagram.com/hakatabunko_official",
    "longitude": 126.9237639,
    "thumbnailUrl": "/assets/default-ramen.svg"
  },
  {
    "name": "소금제면소 홍대",
    "tags": [
      "라멘",
      "일본식라면"
    ],
    "phone": null,
    "address": "서울특별시 마포구 와우산로17길 26 1층",
    "latitude": 37.5502888,
    "placeUrl": null,
    "longitude": 126.9215063,
    "thumbnailUrl": "/assets/default-ramen.svg"
  },
  {
    "name": "반라이",
    "tags": [
      "라멘",
      "일본식라면"
    ],
    "phone": null,
    "address": "서울특별시 마포구 독막로15길 3-12 102호",
    "latitude": 37.5484285,
    "placeUrl": null,
    "longitude": 126.921529,
    "thumbnailUrl": "/assets/default-ramen.svg"
  },
  {
    "name": "츠케루",
    "tags": [
      "라멘",
      "일본식라면"
    ],
    "phone": null,
    "address": "서울특별시 마포구 와우산로23길 9 1층 102호",
    "latitude": 37.5533814,
    "placeUrl": "http://instagram.com/tsukeru_tsukemen",
    "longitude": 126.9245307,
    "thumbnailUrl": "/assets/default-ramen.svg"
  },
  {
    "name": "담택",
    "tags": [
      "라멘",
      "일본식라면"
    ],
    "phone": null,
    "address": "서울특별시 마포구 동교로12안길 51 1층",
    "latitude": 37.5544837,
    "placeUrl": "http://instagram.com/damtaek",
    "longitude": 126.9152095,
    "thumbnailUrl": "/assets/default-ramen.svg"
  },
  {
    "name": "사루카메",
    "tags": [
      "라멘",
      "일본식라면"
    ],
    "phone": null,
    "address": "서울특별시 마포구 연남로 15 1층",
    "latitude": 37.5610493,
    "placeUrl": "https://www.instagram.com/sarukame_ramen/",
    "longitude": 126.9227522,
    "thumbnailUrl": "/assets/default-ramen.svg"
  },
  {
    "name": "이리에라멘",
    "tags": [
      "라멘",
      "일본식라면"
    ],
    "phone": null,
    "address": "서울특별시 마포구 성지1길 18 1층",
    "latitude": 37.5481204,
    "placeUrl": "https://www.instagram.com/irie_ramen",
    "longitude": 126.9144052,
    "thumbnailUrl": "/assets/default-ramen.svg"
  },
  {
    "name": "세상끝의라멘",
    "tags": [
      "라멘",
      "일본식라면"
    ],
    "phone": null,
    "address": "서울특별시 마포구 양화로7길 6-5 와와빌딩 2동 2층 세상끝의라멘",
    "latitude": 37.5516897,
    "placeUrl": "https://www.instagram.com/sekai_no_hate_no_ramen",
    "longitude": 126.9151973,
    "thumbnailUrl": "/assets/default-ramen.svg"
  },
  {
    "name": "아키야라멘",
    "tags": [
      "라멘",
      "일본식라면"
    ],
    "phone": null,
    "address": "서울특별시 마포구 토정로 39-3 1층 아키야라멘",
    "latitude": 37.5457407,
    "placeUrl": "http://instagram.com/akiya.ramen",
    "longitude": 126.9153442,
    "thumbnailUrl": "/assets/default-ramen.svg"
  },
  {
    "name": "하쿠텐라멘",
    "tags": [
      "라멘",
      "일본식라면"
    ],
    "phone": null,
    "address": "서울특별시 마포구 동교로 266-12 반지하",
    "latitude": 37.562848,
    "placeUrl": "http://instagram.com/hakuten92",
    "longitude": 126.9258353,
    "thumbnailUrl": "/assets/default-ramen.svg"
  },
  {
    "name": "쿄 라멘",
    "tags": [
      "라멘",
      "일본식라면"
    ],
    "phone": null,
    "address": "서울특별시 마포구 동교로46길 25 지층 쿄, 라멘",
    "latitude": 37.5622874,
    "placeUrl": "http://instagram.com/kyoramen",
    "longitude": 126.9261473,
    "thumbnailUrl": "/assets/default-ramen.svg"
  },
  {
    "name": "카라멘야",
    "tags": [
      "라멘",
      "일본식라면"
    ],
    "phone": null,
    "address": "서울특별시 서대문구 연세로7안길 34-1 1층",
    "latitude": 37.5582219,
    "placeUrl": "http://www.instagram.com/karamenya_i",
    "longitude": 126.9348727,
    "thumbnailUrl": "/assets/default-ramen.svg"
  },
  {
    "name": "라멘트럭 상수본점",
    "tags": [
      "라멘",
      "일본식라면"
    ],
    "phone": null,
    "address": "서울특별시 마포구 독막로14길 31 1층 라멘트럭",
    "latitude": 37.5474679,
    "placeUrl": "https://www.facebook.com/ramentruck",
    "longitude": 126.9226481,
    "thumbnailUrl": "/assets/default-ramen.svg"
  },
  {
    "name": "이츠모라멘",
    "tags": [
      "라멘",
      "일본식라면"
    ],
    "phone": null,
    "address": "서울특별시 마포구 와우산로23길 18-7 2층 202호",
    "latitude": 37.5539865,
    "placeUrl": "http://instagram.com/itsumo_ramen",
    "longitude": 126.9246495,
    "thumbnailUrl": "/assets/default-ramen.svg"
  }
]
